[
  {"id":1,"name": "Abia", "lat":	"5.532003041",	"long":"7.486002487"},
  {"id":2,"name": "Adamawa", "lat":	10.2703408, "long":	13.2700321},
  {"id":3,"name":"Akwa Ibom",	"lat": 5.007996056,	"long":7.849998524},
  {"id":4,"name":"Anambra",	"lat":6.210433572,	"long":7.06999711},
  {"id":5,"name":"Bauchi" ,	"lat":11.68040977, "long":	10.19001339},
  {"id":6,"name":"Bayelsa" ,	"lat":4.867777, "long":5.898714},
  {"id":7,"name":"Benue" ,	"lat": 7.190399596, "long":	8.129984089},
  {"id":8,"name":"Borno" ,	"lat":10.62042279, "long":	12.18999467},
  {"id":9,"name":"Cross River", "lat":4.960406513, "long":	8.330023558},
  {"id":10,"name": "Delta", "lat":	5.890427265, "long":	5.680004434},
  {"id":11,"name":"Ebonyi", "lat":	6.2500000000001, "long":8.08333},
  {"id":12,"name":"Edo", "lat":	6.340477314, "long":5.620008096},
  {"id":13,"name":"Ekiti" ,"lat":7.630372741, "long":	5.219980834},
  {"id":14,"name":"Enugu", "lat":	6.867034321, "long":	7.383362995},
  {"id":15,"name":"F C T" ,	"lat":9.083333149,	"long":7.533328002},
  {"id":16,"name":"Gombe" ,	"lat":10.29044293, "long":	11.16995357},
  {"id":17,"name":"Imo",	"lat":5.492997053,	"long":7.026003588},
  {"id":18,"name":"Jigawa",	"lat":11.7991891,	"long":9.350334607},
  {"id":19,"name":"Kaduna",	"lat":11.0799813,	"long":7.710009724},
  {"id":20,"name":"Kano" ,	"lat":11.99997683, "long":	8.5200378},
  {"id":21,"name":"Katsina" ,	"lat":11.5203937,	"long":7.320007689},
  {"id":22,"name":"Kebbi",	"lat":12.45041445,	"long":4.199939737},
  {"id":23,"name":"Kogi",	"lat":7.800388203,	"long":6.739939737},
  {"id":24,"name":"Kwara", "lat":8.490010192, "long":4.549995889},
  {"id":25,"name":"Lagos","lat":	6.443261653, "long":	3.391531071},
  {"id":26,"name":"Nassarawa" ,"lat":	8.490423603, "long":	8.5200378},
  {"id":27,"name":"Niger", "lat":	10.4003587,	"long":5.469939737},
  {"id":28,"name":"Ogun",	"lat":7.160427265,"long":	3.350017455},
  {"id":29,"name":"Ondo",	"lat":7.250395934, "long":	5.199982054},
  {"id":30,"name":"Osun" ,"lat":	7.629959329, "long":	4.179992634},
  {"id":31,"name":"Oyo","lat":7.970016092, "long":	3.590002806},
  {"id":32,"name":"Plateau",	"lat":9.929973978,	"long":8.890041055},
  {"id":33,"name":"Rivers" ,"lat":	4.810002257, "long":	7.010000772},
  {"id":34,"name":"Sokoto",	"lat":13.06001548,	"long":5.240031289},
  {"id":35,"name":"Taraba",	"lat":7.870409769,	"long":9.780012572},
  {"id":36,"name":"Yobe"	,"lat":11.74899608,	"long":11.96600457},
  {"id":37,"name":" "	,"lat":11.74899608,	"long":11.96600457},
  {"id":38,"name":"Zamfara", "lat":12.1704057, "long":	6.659996296}
  ]
